[
  {
    "lng": 116.306034,
    "lat": 40.137779,
    "name": "滨河森林公园",
    "address": "北京市昌平区南门大道巩华城东侧"
  },
  {
    "lng": 116.475291,
    "lat": 39.779661,
    "name": "南海子公园",
    "address": "北京市大兴区黄亦路16号"
  },
  {
    "lng": 116.748887,
    "lat": 39.8824,
    "name": "通州大运河森林公园",
    "address": "北京市通州区宋梁路南段"
  },
  {
    "lng": 116.465537,
    "lat": 40.128989,
    "name": "未来科学城滨水公园",
    "address": "北京市昌平区未来科学城内"
  },
  {
    "lng": 116.209193,
    "lat": 39.978535,
    "name": "北京西山国家森林公园(昌华园区)",
    "address": "闵庄路与香山南路交叉口西行100米"
  },
  {
    "lng": 116.183872,
    "lat": 39.895655,
    "name": "永定河休闲森林公园",
    "address": "北京市石景山区京原路55号"
  },
  {
    "lng": 116.326526,
    "lat": 39.922467,
    "name": "玉渊潭公园",
    "address": "北京市海淀区西三环中路10号"
  },
  {
    "lng": 116.388442,
    "lat": 39.88066,
    "name": "陶然亭公园",
    "address": "北京市西城区太平街19号"
  },
  {
    "lng": 116.39548,
    "lat": 39.932909,
    "name": "北海公园",
    "address": "北京市西城区文津街1号"
  },
  {
    "lng": 116.32483,
    "lat": 39.948437,
    "name": "紫竹院公园",
    "address": "北京市海淀区中关村南大街35号"
  }
]
